[
 {
   "key": "PFM-URA-199497",
   "latitude": -19.750240137283452,
   "longitude": -47.95924094617634,
   "name": "POLICIA CIVIL FORUM (ID:199497)"
 },
 {
   "key": "PFM-URA-179924",
   "latitude": -19.747613140051115,
   "longitude": -47.95107347329854,
   "name": "SDS (ID:179924)" 
 },
 {
   "key": "PFM-URA-179496",
   "latitude": -19.74488493967663,
   "longitude": -47.936764158435395,
   "name": "MELHOR EM CASA (ID:179496)"
 },
 {
   "key": "PFM-URA-216388",
   "latitude": -19.726941909052755,
   "longitude": -47.94063164309567,
   "name": "UER - PONTO 2 (ID:216388)"
 },
 {
    "key": "SBV-OLT-N-01",
    "latitude": -20.593858219162307,
    "longitude": -47.64187921740892,
    "name": "SAO JOSE DA BELA VISTA - SP"
 },
 {
   "key": "OIA-OLT-N-01",
   "latitude": -20.720042348795275,
   "longitude": -47.88480387507757,
   "name": "ORLANDIA - SP"
 },
 {
   "key": "IVR-OLT-N-01",
   "latitude": -20.335851123884193,
   "longitude": -47.78515978857777,
   "name": "ITUVERAVA - SP"
 }
]
